City_ID,City,Lat,Lng,Max Temp,Humidity,Cloudiness,Wind Speed,Country,Date
0,whitehorse,60.7161,-135.0538,-22.57,77,75,1.03,CA,1738782596
1,lazaro cardenas,17.9583,-102.2,29.21,51,0,3.58,MX,1738782717
2,bethel,41.3712,-73.414,0.68,45,58,2.24,US,1738782719
3,waitangi,-43.9535,-176.5597,13.79,85,77,2.68,NZ,1738782720
4,adamstown,-25.066,-130.1015,25.1,79,6,6.19,PN,1738782721
5,sarangarh,21.6,83.0833,22.67,38,8,1.3,IN,1738782722
6,margaret river,-33.95,115.0667,18.53,85,0,6.97,AU,1738782723
7,vostochnyy,55.8167,37.8667,-0.09,100,100,2.48,RU,1738782701
8,port saint john's,-31.6229,29.5448,22.91,93,100,4.0,ZA,1738782725
9,cabo san lucas,22.8909,-109.9124,25.17,38,0,3.6,MX,1738782602
10,ukiah,39.1502,-123.2078,6.94,84,75,0.0,US,1738782727
11,jamestown,42.097,-79.2353,-3.2,61,0,2.57,US,1738782728
12,batticaloa,7.7102,81.6924,25.46,78,12,4.16,LK,1738782730
13,enkoping,59.6361,17.0777,3.79,90,0,3.0,SE,1738782731
14,huarmey,-10.0681,-78.1522,24.49,73,95,3.81,PE,1738782732
15,port-aux-francais,-49.35,70.2167,6.81,96,100,12.49,TF,1738782733
16,fale old settlement,-9.3852,-171.2468,28.5,74,87,7.54,TK,1738782734
17,tiksi,71.6872,128.8694,-28.73,97,100,3.38,RU,1738782735
18,grytviken,-54.2811,-36.5092,1.9,94,100,7.27,GS,1738782736
19,nyala,12.05,24.8833,26.0,12,98,5.6,SD,1738782737
20,lebu,-37.6167,-73.65,19.38,67,1,3.44,CL,1738782738
21,yuzhno-kurilsk,44.0306,145.8556,-1.94,77,85,6.83,RU,1738782740
22,georgetown,5.4112,100.3354,26.96,78,20,0.0,MY,1738782480
23,markovo,57.3206,107.0881,-40.26,100,96,0.97,RU,1738782742
24,afaahiti,-17.75,-149.2833,25.76,81,75,6.53,PF,1738782743
25,hithadhoo,-0.6,73.0833,27.81,66,4,5.13,MV,1738782744
26,saipan,15.1355,145.701,27.39,78,0,5.14,MP,1738782745
27,papatowai,-46.5619,169.4708,11.19,89,79,1.78,NZ,1738782746
28,ushuaia,-54.8,-68.3,11.37,73,100,3.34,AR,1738782722
29,ancud,-41.8697,-73.8203,15.74,75,98,5.38,CL,1738782644
30,stanley,54.868,-1.6985,3.01,85,0,3.6,GB,1738782750
31,walvis bay,-22.9575,14.5053,19.2,78,68,4.64,NA,1738782751
32,albany,42.6001,-73.9662,-4.12,47,41,2.24,US,1738782486
33,minas de marcona,-15.2119,-75.1103,22.38,64,72,6.09,PE,1738782753
34,vanino,49.0869,140.2543,-2.89,89,93,6.17,RU,1738782754
35,fisterra,42.9049,-9.2629,12.85,70,100,0.45,ES,1738782755
36,talnakh,69.4865,88.3972,-25.32,93,57,2.38,RU,1738782756
37,floro,61.5996,5.0328,5.98,87,75,8.23,NO,1738782757
38,port alfred,-33.5906,26.891,20.66,98,100,6.12,ZA,1738782758
39,rasinari,45.7,24.0667,0.09,69,100,0.51,RO,1738782759
40,basarabeasca,46.3311,28.9728,-1.12,65,7,3.31,MD,1738782761
41,hermanus,-34.4187,19.2345,17.11,59,100,5.66,ZA,1738782762
42,ola,59.5833,151.2833,-24.97,82,12,3.4,RU,1738782763
43,weno,7.4515,151.8468,27.97,83,100,3.6,FM,1738782764
44,yellowknife,62.456,-114.3525,-4.21,95,100,5.66,CA,1738782765
45,badger,64.8,-147.5333,-10.57,89,100,0.0,US,1738782766
46,koulikoro,14.0,-7.75,23.75,14,100,4.17,ML,1738782767
47,khilchipur,24.0333,76.5667,15.26,29,0,3.57,IN,1738782768
48,blackmans bay,-43.0167,147.3167,10.29,87,70,2.03,AU,1738782769
49,tokar,18.4254,37.729,25.99,67,0,4.6,SD,1738782771
50,cuiaba,-15.5961,-56.0967,27.96,74,75,4.12,BR,1738782574
51,saint-francois,46.4154,3.9054,3.71,94,100,1.54,FR,1738782773
52,iskateley,67.6803,53.1512,-10.5,93,45,6.47,RU,1738782774
53,tofol,5.3248,163.0078,24.49,91,100,3.21,FM,1738782775
54,kodiak,57.79,-152.4072,-6.27,86,0,0.0,US,1738782776
55,cherdyn',60.403,56.4787,-8.37,92,100,1.69,RU,1738782777
56,khandyga,62.6667,135.6,-42.82,100,49,0.26,RU,1738782778
57,aasiaat,68.7098,-52.8699,-31.32,99,49,1.34,GL,1738782779
58,vendome,47.8,1.0667,6.05,99,82,3.04,FR,1738782781
59,touros,-5.1989,-35.4608,28.95,67,100,5.08,BR,1738782782
60,grand falls-windsor,48.9332,-55.6649,-10.83,57,100,3.13,CA,1738782783
61,griffith,41.5284,-87.4237,-0.08,61,100,4.63,US,1738782784
62,rouyn-noranda,48.2398,-79.0288,-13.95,56,20,6.69,CA,1738782781
63,kolonia town,6.964,158.206,23.89,96,100,2.24,FM,1738782787
64,tolanaro,-25.0319,46.9987,25.9,91,2,4.71,MG,1738782788
65,livingston,55.9029,-3.5226,4.5,95,0,3.6,GB,1738782789
66,edinburgh of the seven seas,-37.0676,-12.3116,18.51,93,96,11.2,SH,1738782790
67,invercargill,-46.4,168.35,11.68,86,76,0.89,NZ,1738782791
68,longyearbyen,78.2186,15.6401,-0.09,59,75,7.72,SJ,1738782792
69,ribeira grande,38.5167,-28.7,18.22,88,40,3.09,PT,1738782793
70,kalmunai,7.4167,81.8167,25.22,77,14,3.55,LK,1738782795
71,arpajon-sur-cere,44.9026,2.4581,3.83,75,0,1.54,FR,1738782796
72,inebolu,41.9747,33.7608,2.66,79,97,2.35,TR,1738782797
73,remire-montjoly,4.9167,-52.2667,28.02,78,72,5.66,GF,1738782798
74,constantia,44.1833,28.65,-2.39,60,36,6.25,RO,1738782607
75,olonkinbyen,70.9221,-8.7187,-2.15,77,4,13.93,SJ,1738782800
76,west island,-12.1568,96.8225,27.99,89,40,5.14,CC,1738782803
77,st. john's,47.5649,-52.7093,-5.02,80,100,9.77,CA,1738782804
78,kavaratti,10.5669,72.642,27.22,72,13,3.32,IN,1738782805
79,jayapura,-2.5333,140.7,24.66,94,100,1.15,ID,1738782598
80,emerald,-23.5333,148.1667,20.67,97,100,5.71,AU,1738782808
81,crane,31.3974,-102.3501,26.82,29,0,4.35,US,1738782809
82,thetford-mines,46.0937,-71.3054,-16.07,85,100,4.67,CA,1738782810
83,mar del plata,-38.0023,-57.5575,22.83,80,100,6.17,AR,1738782183
84,port elizabeth,-33.918,25.5701,21.29,89,81,0.89,ZA,1738782792
85,al qadarif,14.0349,35.3834,30.22,23,3,4.98,SD,1738782636
86,san patricio,28.017,-97.5169,26.97,62,100,6.62,US,1738782815
87,fizuli,39.5771,47.4084,4.17,84,100,5.58,AZ,1738782816
88,hadibu,12.65,54.0333,22.49,69,1,4.96,YE,1738782817
89,bodo,67.28,14.405,4.02,77,75,10.8,NO,1738782818
90,bilibino,68.0546,166.4372,-41.71,94,5,1.35,RU,1738782819
91,boguchany,58.3814,97.4531,-14.85,97,100,2.16,RU,1738782820
92,sinop,41.7711,34.8709,-2.36,96,100,1.27,TR,1738782821
93,acarau,-2.8856,-40.12,28.36,71,72,6.21,BR,1738782823
94,puerto ayora,-0.7393,-90.3518,26.42,91,2,1.79,EC,1738782824
95,ha tinh,18.3333,105.9,16.45,90,98,1.24,VN,1738782825
96,haiku-pauwela,20.9219,-156.3051,22.36,76,40,6.17,US,1738782827
97,aitape,-3.1374,142.3475,25.19,90,100,1.65,PG,1738782828
98,sao miguel do tapuio,-5.5036,-41.3233,32.25,42,98,4.84,BR,1738782829
99,shitanjing,39.2342,106.3439,-9.58,33,0,12.93,CN,1738782830
100,chegdomyn,51.1167,133.0167,-16.7,92,100,1.61,RU,1738782831
101,moab,38.5733,-109.5498,18.03,32,0,9.84,US,1738782640
102,arkhangel'sk,64.5401,40.5433,-7.94,93,40,4.0,RU,1738782834
103,carangola,-20.7331,-42.0294,27.8,59,77,1.47,BR,1738782835
104,san antonio de pale,-1.4014,5.6325,27.45,81,100,4.22,GQ,1738782836
105,tbeng meanchey,13.8167,104.9667,20.36,64,0,1.17,KH,1738782837
106,inirida,3.8653,-67.9239,33.26,50,67,1.2,CO,1738782838
107,magadan,59.5667,150.8,-23.59,73,2,2.81,RU,1738782547
108,kapuskasing,49.4169,-82.4331,-10.95,56,75,7.2,CA,1738782840
109,kampene,-3.6,26.6667,21.08,98,100,0.76,CD,1738782841
110,iqaluit,63.7506,-68.5145,-30.15,67,40,1.34,CA,1738782842
111,manicore,-5.8092,-61.3003,23.61,99,100,0.23,BR,1738782844
112,san rafael,-34.6177,-68.3301,33.3,14,0,3.8,AR,1738782584
113,dzilam gonzalez,21.2833,-88.9333,32.84,33,0,2.01,MX,1738782846
114,sabrum,23.0,91.7319,16.25,57,0,1.27,IN,1738782847
115,pundong,-7.9522,110.3486,23.7,95,43,2.78,ID,1738782848
116,keelung,25.1283,121.7419,15.19,83,100,5.51,TW,1738782849
117,natal,-5.795,-35.2094,25.36,94,75,3.6,BR,1738782591
118,jamiltepec,16.2833,-97.8167,32.04,36,0,3.08,MX,1738782853
119,fort st. john,56.2499,-120.8529,-28.06,76,75,2.06,CA,1738782854
120,nogliki,51.8333,143.1667,-1.9,96,100,13.23,RU,1738782855
121,sinabang,2.4803,96.3801,26.39,82,100,1.42,ID,1738782856
122,refahiye,39.9008,38.7667,-6.52,96,100,3.0,TR,1738782857
123,el calafate,-50.3408,-72.2768,14.26,42,44,3.63,AR,1738782646
124,isafjordur,66.0755,-23.124,1.44,90,100,12.11,IS,1738782859
125,antsiranana,-12.2787,49.2917,24.91,88,100,3.09,MG,1738782861
126,avarua,-21.2078,-159.775,28.03,83,100,2.06,CK,1738782862
127,katsuura,35.1333,140.3,3.04,60,44,9.25,JP,1738782863
128,tuy hoa,13.0833,109.3,18.58,90,89,1.61,VN,1738782864
129,bredasdorp,-34.5322,20.0403,17.96,53,100,3.67,ZA,1738782865
130,viqueque,-8.8673,126.3658,25.32,90,100,1.16,TL,1738782866
131,tshabong,-26.05,22.45,31.8,21,56,1.54,BW,1738782867
132,as sulayyil,20.4607,45.5779,18.17,11,100,4.44,SA,1738782870
133,al jawf,29.5,38.75,13.07,47,100,6.94,SA,1738782871
134,la passe,45.5549,-0.8967,7.68,85,60,5.23,FR,1738782872
135,uturoa,-16.7333,-151.4333,27.91,73,100,5.75,PF,1738782873
136,novyy turtkul',41.55,61.0167,3.8,57,0,3.79,UZ,1738782874
137,newport,51.5877,-2.9984,6.41,88,99,2.69,GB,1738782875
138,ilulissat,69.2167,-51.1,-21.99,49,75,5.14,GL,1738782876
139,cedral,23.8,-100.7333,22.23,37,0,1.16,MX,1738782877
140,saudarkrokur,65.7461,-19.6394,5.02,88,100,17.87,IS,1738782740
141,susuman,62.7833,148.1667,-44.58,95,67,0.36,RU,1738782881
142,brokopondo,4.75,-55.1667,27.59,72,91,2.18,SR,1738782882
143,georgievka,49.3314,81.5761,-25.87,100,24,1.47,KZ,1738782883
144,nemuro,43.3236,145.575,-0.29,72,15,11.53,JP,1738782884
145,puerto armuelles,8.2833,-82.8667,26.72,69,100,1.34,PA,1738782885
146,bacchus marsh,-37.6727,144.4383,18.23,81,10,1.22,AU,1738782886
147,kone,-21.0595,164.8658,24.79,93,100,2.19,NC,1738782887
148,ust-nera,64.5667,143.2,-41.14,98,64,1.96,RU,1738782888
149,priozersk,61.0393,30.1291,-3.28,86,100,5.39,RU,1738782890
150,thompson,55.7435,-97.8558,-14.91,61,75,6.17,CA,1738782891
151,mapleton,40.1302,-111.5785,14.22,47,0,8.23,US,1738782892
152,polovinnoye,54.7914,65.9864,-6.33,95,100,3.54,RU,1738782893
153,ust'-ilimsk,58.0006,102.6619,-24.39,97,100,1.91,RU,1738782894
154,nadvoitsy,63.8667,34.3167,-9.63,77,100,6.46,RU,1738782895
155,nyurba,63.2842,118.3319,-44.67,100,59,1.59,RU,1738782897
156,kamenica,50.8333,12.9167,1.77,94,99,1.21,DE,1738782898
157,jerome,42.7241,-114.5186,1.46,57,20,13.38,US,1738782899
158,santa cruz,-17.8,-63.1667,33.7,52,40,6.69,BO,1738782629
159,sandnessjoen,66.0217,12.6316,4.12,81,20,4.63,NO,1738782901
160,mount isa,-20.7333,139.5,26.87,83,20,3.09,AU,1738782902
161,al hawatah,13.4167,34.6333,31.35,22,0,4.94,SD,1738782903
162,morehead city,34.7229,-76.726,12.81,71,100,7.72,US,1738782418
163,bikenibeu village,1.3673,173.1241,26.98,89,40,3.09,KI,1738782905
164,beni,0.5,29.4667,21.2,34,100,1.42,CD,1738782906
165,namibe,-15.1961,12.1522,23.34,86,100,3.12,AO,1738782908
166,filingue,14.3521,3.3168,28.35,12,3,3.83,NE,1738782909
167,kailua-kona,19.6406,-155.9956,24.2,68,2,0.45,US,1738782910
168,alo,6.5486,4.2686,27.75,82,70,4.33,NG,1738782911
169,tralee,52.2704,-9.7026,4.52,84,2,2.06,IE,1738782912
170,tazacorte,28.629,-17.9293,18.54,70,40,5.66,ES,1738782913
171,vila real,41.3006,-7.7441,8.96,60,27,1.24,PT,1738782897
172,hawaiian paradise park,19.5933,-154.9731,23.83,81,0,2.06,US,1738782916
173,utrik,11.2278,169.8474,26.13,83,100,9.7,MH,1738782917
174,rio grande,-32.035,-52.0986,28.23,71,0,7.1,BR,1738782728
175,pleven,43.4167,24.6167,2.97,65,40,3.09,BG,1738782920
176,natchitoches,31.7668,-93.1335,25.99,73,75,0.0,US,1738782921
177,diu,20.7141,70.9822,19.04,31,0,4.41,IN,1738782922
178,manggar,-2.8833,108.2667,26.41,82,100,5.27,ID,1738782923
179,chaozhou,23.6651,116.6379,13.92,61,100,1.02,CN,1738782924
180,poso,-1.3959,120.7524,24.41,90,100,2.0,ID,1738782926
181,santana,-0.0583,-51.1817,29.1,84,75,2.57,BR,1738782928
182,porto belo,-27.1578,-48.5531,29.42,82,100,6.28,BR,1738782929
183,san pedro pochutla,15.7333,-96.4667,32.62,41,0,4.24,MX,1738782930
184,puerto natales,-51.7236,-72.4875,15.25,41,75,3.6,CL,1738782345
185,port mathurin,-19.6833,63.4167,27.2,78,4,3.29,MU,1738782932
186,cabedelo,-6.9811,-34.8339,24.37,80,100,5.89,BR,1738782933
187,kirakira,-10.4544,161.9205,27.42,82,100,3.51,SB,1738782934
188,chernyshevsk,52.5243,117.0174,-29.62,94,39,2.88,RU,1738782935
189,lompoc,34.6391,-120.4579,13.4,87,100,2.06,US,1738782936
190,sarikei,2.1167,111.5167,22.99,99,100,1.06,MY,1738782937
191,kayangel,8.0823,134.7173,27.45,83,100,7.87,PW,1738782939
192,stargard,53.3367,15.0499,3.11,86,78,0.89,PL,1738782940
193,machico,32.7,-16.7667,17.78,74,20,4.63,PT,1738782941
194,keflavik,64.0049,-22.5624,4.24,93,100,21.09,IS,1738782942
195,celestun,20.8667,-90.4,28.16,59,3,5.27,MX,1738782943
196,cidreira,-30.1811,-50.2056,27.85,80,3,4.46,BR,1738782678
197,college,64.8569,-147.8028,-10.52,86,100,0.0,US,1738782947
198,darwin,-12.4611,130.8418,26.61,92,40,4.02,AU,1738782797
199,bandarbeyla,9.4942,50.8122,22.98,75,15,6.83,SO,1738782949
200,nagqu,31.5,92.0,-2.4,9,0,14.02,CN,1738782950
201,kemijarvi,66.7131,27.4306,-3.35,93,100,5.77,FI,1738782951
202,namtsy,62.7161,129.6658,-41.24,100,51,1.4,RU,1738782953
203,vorgashor,67.5833,63.95,-13.92,98,100,3.13,RU,1738782954
204,taltal,-25.4,-70.4833,21.72,71,33,2.9,CL,1738782955
205,kharabali,47.4196,47.2568,-1.2,64,27,3.96,RU,1738782956
206,dalby,-27.1833,151.2667,19.68,77,72,3.33,AU,1738782783
207,mikomeseng,2.1361,10.6132,22.78,91,98,1.76,GQ,1738782958
208,corfu,39.62,19.9197,8.99,76,20,1.03,GR,1738782959
209,nikolayevsk-on-amure,53.1406,140.73,-4.9,93,100,8.49,RU,1738782960
210,sola,-13.8833,167.55,27.47,74,100,4.14,VU,1738782961
211,illizi,26.4833,8.4667,15.79,29,10,2.22,DZ,1738782963
212,chonchi,-42.6128,-73.8092,14.76,80,98,3.15,CL,1738782964
213,kidal,18.4411,1.4078,27.09,21,99,4.91,ML,1738782779
214,wailua homesteads,22.0669,-159.378,20.44,78,100,0.0,US,1738782966
215,nizhneangarsk,55.7833,109.55,-30.29,76,32,2.45,RU,1738782967
216,toliara,-23.35,43.6667,28.32,79,32,2.17,MG,1738782968
217,east london,-33.0153,27.9116,22.69,77,100,3.74,ZA,1738782969
218,nizhniy kuranakh,58.8353,125.4869,-40.47,100,91,0.81,RU,1738782970
219,alice springs,-23.7,133.8833,24.75,44,100,0.51,AU,1738782949
220,champerico,14.3,-91.9167,29.23,62,1,4.54,GT,1738782973
221,savastepe,39.3832,27.6561,-0.32,91,80,5.86,TR,1738782974
222,krivosheino,57.3431,83.9261,-23.74,100,22,2.01,RU,1738782975
223,enriquillo,17.9,-71.2333,27.53,62,22,6.54,DO,1738782976
224,murghob,38.1702,73.9667,-28.47,92,87,1.38,TJ,1738782977
225,taesal-li,36.9714,126.4542,-3.46,58,96,8.13,KR,1738782979
226,kismayo,-0.3582,42.5454,24.74,86,49,7.23,SO,1738782980
227,port macquarie,-31.4333,152.9167,21.71,99,54,0.45,AU,1738782981
228,blackfoot,43.1905,-112.345,0.94,64,20,11.13,US,1738782982
229,sao tome,0.3365,6.7273,27.6,79,100,3.12,ST,1738782983
230,neryungri,56.6709,124.6491,-35.53,100,98,1.7,RU,1738782984
231,holualoa,19.6228,-155.9522,22.91,68,75,0.45,US,1738782970
232,bullas,38.0467,-1.6723,7.78,50,0,1.64,ES,1738782987
233,farafangana,-22.8167,47.8333,26.24,90,49,5.22,MG,1738782988
234,egersund,58.4513,5.9997,4.86,84,10,4.33,NO,1738782989
235,anloga,5.7947,0.8973,28.02,83,74,7.01,GH,1738782990
236,poquoson,37.1224,-76.3458,5.61,64,100,5.14,US,1738782991
237,anadyr,64.75,177.4833,-37.72,73,0,4.0,RU,1738782992
238,frankenberg,51.0667,8.8,-0.13,92,100,0.99,DE,1738782993
239,greenfields,-33.0333,27.8622,22.2,78,100,3.15,ZA,1738782994
240,gebre guracha,9.8,38.4,16.07,18,20,2.35,ET,1738782995
241,salalah,17.0151,54.0924,22.05,64,40,0.51,OM,1738782997
242,quellon,-43.1167,-73.6167,15.1,77,100,3.85,CL,1738782998
243,petropavlovsk-kamchatsky,53.0452,158.6483,-0.67,47,75,13.0,RU,1738782999
244,qaqortoq,60.7167,-46.0333,-18.76,84,1,0.48,GL,1738783000
245,vilyuchinsk,52.9306,158.4028,0.15,91,100,11.56,RU,1738783001
246,ponta delgada,37.7333,-25.6667,18.44,100,75,4.63,PT,1738783002
247,ljusdal,61.8288,16.0913,-5.31,90,8,1.88,SE,1738783003
248,barra de santo antonio,-9.4047,-35.5072,25.35,85,100,3.68,BR,1738783004
249,san fernando de apure,7.8878,-67.4724,36.61,28,11,4.3,VE,1738783005
250,xam nua,20.4197,104.0439,9.76,99,29,1.23,LA,1738783007
251,turrialba,9.9047,-83.6835,29.7,60,36,3.68,CR,1738782863
252,belvedere marittimo,39.6179,15.8617,10.04,65,0,2.91,IT,1738783009
253,zaltan,32.947,11.8665,14.38,77,0,2.73,LY,1738783010
254,ketchikan,55.3422,-131.6461,1.26,51,0,5.14,US,1738783012
255,kaifeng,34.7911,114.3483,-0.33,32,82,2.67,CN,1738783013
256,cururupu,-1.8283,-44.8683,27.87,77,23,2.35,BR,1738783014
257,beyneu,45.3167,55.2,-0.24,86,31,5.17,KZ,1738783015
258,watsa,3.0372,29.5355,23.72,43,100,0.46,CD,1738783017
259,luanda,-8.8368,13.2343,26.57,83,98,5.29,AO,1738782847
260,kerikeri,-35.2268,173.9474,16.06,90,99,1.47,NZ,1738783019
261,mejit,10.2753,170.8646,26.32,85,100,9.65,MH,1738783020
262,westport,41.1415,-73.3579,1.85,38,0,4.02,US,1738783021
263,okhotsk,59.3833,143.3,-22.8,68,36,6.97,RU,1738783022
264,dudinka,69.4058,86.1778,-23.59,99,100,2.8,RU,1738782972
265,geraldton,-28.7667,114.6,23.23,88,0,3.09,AU,1738782820
266,barranca,-10.75,-77.7667,24.47,68,100,4.45,PE,1738783025
267,cole harbour,44.6724,-63.4751,-11.02,60,40,9.26,CA,1738783026
268,san andres,12.5847,-81.7006,30.01,62,20,8.23,CO,1738782903
269,taoudenni,22.6783,-3.9836,19.33,15,0,5.43,ML,1738783030
270,flores,16.9226,-89.8994,27.94,67,20,2.73,GT,1738783031
271,benisheikh,11.8072,12.4909,23.4,13,5,4.49,NG,1738783035
272,freeport,40.6576,-73.5832,2.79,40,0,3.13,US,1738783036
273,santa terezinha,-29.9002,-50.0904,27.83,76,0,4.42,BR,1738782928
274,bridgewater,44.3835,-64.5155,-10.18,65,100,9.77,CA,1738783038
275,wewak,-3.5534,143.6268,24.98,90,100,2.05,PG,1738783039
276,lihue,21.9789,-159.3672,20.77,78,100,0.0,US,1738783040
277,siwa oasis,29.2041,25.5195,15.48,53,0,7.57,EG,1738783042
278,dubove,48.1721,23.8895,-0.26,89,86,0.68,UA,1738783043
279,ares,-6.1944,-35.1603,28.84,66,65,4.73,BR,1738783044
280,okha,53.5739,142.9478,-3.35,86,100,12.65,RU,1738783045
281,inhambane,-23.865,35.3833,25.15,75,1,4.38,MZ,1738783046
282,gaspe,48.8334,-64.4819,-12.88,40,20,5.14,CA,1738783047
283,kitaibaraki,36.7833,140.75,-0.86,61,0,0.45,JP,1738783048
284,coos bay,43.3665,-124.2179,7.99,61,75,6.69,US,1738782944
285,thunder bay,48.4001,-89.3168,-12.01,40,75,1.03,CA,1738782964
286,inderbor,48.55,51.7833,-5.95,93,100,5.03,KZ,1738783052
287,ma'an,26.9775,110.7211,7.76,76,100,2.67,CN,1738783054
288,callao,-12.0667,-77.15,25.16,73,0,5.14,PE,1738782996
289,praya,14.9215,-23.5087,22.3,64,0,8.75,CV,1738783056
290,juan aldama,24.2908,-103.3944,23.48,14,0,2.8,MX,1738783057
291,kourou,5.1552,-52.6478,26.56,87,79,3.45,GF,1738783058
292,oblivskaya,48.5362,42.5014,-3.99,87,100,3.09,RU,1738783059
293,pelabuhanratu,-6.9875,106.5514,26.97,74,100,3.72,ID,1738783060
294,arteche,12.2645,125.4048,24.93,92,99,3.87,PH,1738783061
295,ilza,51.1631,21.2398,0.9,64,0,3.13,PL,1738783063
296,sao joao da barra,-21.6403,-41.0511,31.05,83,0,7.34,BR,1738783064
297,dubbo,-32.25,148.6167,19.07,88,8,3.6,AU,1738783065
298,puerto baquerizo moreno,-0.9,-89.6,30.55,58,20,6.69,EC,1738783066
299,mount gambier,-37.8333,140.7667,12.77,98,10,2.05,AU,1738783067
300,margate,51.3813,1.3862,6.5,85,100,3.66,GB,1738783069
301,renqiu,38.6989,116.0936,-5.55,23,0,1.75,CN,1738783070
302,al khaburah,23.9886,57.0984,19.37,61,3,3.22,OM,1738783071
303,tsiombe,-25.3,45.4833,25.82,90,50,5.88,MG,1738783073
304,khovd,48.0056,91.6419,-16.85,59,0,3.38,MN,1738783074
305,hargeysa,9.56,44.065,14.08,89,94,3.78,SO,1738783075
306,margherita,27.2833,95.6833,17.9,66,100,1.02,IN,1738783076
307,clorinda,-25.2848,-57.7185,40.54,40,93,4.19,AR,1738783077
308,lhasa,29.65,91.1,0.55,19,0,1.34,CN,1738783078
309,port douglas,-16.4833,145.4667,26.27,87,100,1.66,AU,1738783079
310,jinjing,24.575,118.5972,12.85,66,100,7.75,CN,1738783080
311,belalcazar,2.6547,-75.9928,19.33,78,98,1.89,CO,1738783081
312,rumoi,43.9344,141.6428,-2.76,97,100,2.28,JP,1738783082
313,idri,27.5,13.2667,17.11,30,100,6.15,LY,1738783084
314,la ronge,55.1001,-105.2842,-19.86,59,75,4.12,CA,1738783085
315,guadalupe,25.6833,-100.25,26.3,65,40,0.0,MX,1738783086
316,west richland,46.3043,-119.3614,2.08,74,75,2.06,US,1738783087
317,nova sintra,14.8667,-24.7167,22.69,68,0,8.69,CV,1738783088
318,rongelap,11.1635,166.8941,26.92,78,100,8.01,MH,1738783089
319,salavan,15.7167,106.4167,16.67,93,2,1.46,LA,1738783090
320,dzhankoy,45.7167,34.4,-1.68,77,61,1.18,UA,1738783091
321,raja,8.4596,25.678,27.21,20,68,1.48,SS,1738783092
322,pavilosta,56.8879,21.1859,3.77,88,100,4.03,LV,1738783094
323,badarpur,24.9,92.6,16.5,67,5,1.52,IN,1738783095
324,punta del este,-34.9667,-54.95,23.06,99,100,6.69,UY,1738783002
325,bereznik,62.8551,42.7072,-11.69,99,98,2.07,RU,1738783097
326,onega,63.9061,38.1404,-8.42,84,100,5.52,RU,1738783098
327,antonio enes,-16.2325,39.9086,25.39,79,78,2.89,MZ,1738783099
328,zhob,31.3411,69.4481,5.82,36,0,2.93,PK,1738783027
329,el fasher,13.6279,25.3494,21.89,12,43,4.16,SD,1738783101
330,argo,37.6333,22.7333,6.11,71,0,1.81,GR,1738783102
331,muravlenko,63.7898,74.523,-14.8,99,94,3.28,RU,1738783104
332,codrington,-38.2667,141.9667,13.69,95,44,3.27,AU,1738783105
333,juneau,58.3019,-134.4197,-3.66,93,20,0.0,US,1738783106
334,gadzhiyevo,69.2551,33.3362,-6.78,82,100,11.35,RU,1738783107
335,shizunai-furukawacho,42.3339,142.3669,2.2,77,100,13.0,JP,1738783108
336,port moresby,-9.4431,147.1797,24.68,94,40,1.54,PG,1738783109
337,kodinsk,58.6881,99.1844,-17.09,98,100,1.7,RU,1738783110
338,peace river,56.2501,-117.286,-25.83,76,100,5.66,CA,1738783085
339,kingston,17.997,-76.7936,31.53,51,20,3.6,JM,1738783064
340,oriximina,-1.7656,-55.8661,31.45,54,73,1.99,BR,1738783114
341,alesund,62.4723,6.1549,6.85,76,0,6.69,NO,1738783098
342,butembo,0.15,29.2833,17.6,55,100,1.38,CD,1738783117
343,fulton,33.7668,-84.4499,23.23,66,75,3.09,US,1738783118
344,fortaleza,-3.7227,-38.5247,28.07,78,75,4.63,BR,1738783112
345,samarinda,-0.5,117.15,22.96,99,99,0.05,ID,1738783120
346,zag,46.9441,99.165,-27.06,87,5,2.7,MN,1738783121
347,andrelandia,-21.7397,-44.3092,27.62,50,55,2.01,BR,1738783122
348,tindouf,27.6711,-8.1474,19.25,18,0,2.06,DZ,1738783124
349,enewetak,11.3474,162.3373,27.1,71,100,7.58,MH,1738783125
350,sabang,5.8933,95.3214,27.15,77,86,2.2,ID,1738783126
351,fristad,65.2,16.7167,-2.72,92,7,2.12,SE,1738783127
352,qal'ah-ye shahr,35.5473,65.5676,-11.39,72,0,4.74,AF,1738783128
353,sidney,-33.8679,151.2073,21.61,83,20,4.63,AU,1738782903
354,ciudad lazaro cardenas,17.9583,-102.2,29.21,51,0,3.58,MX,1738783130
355,shenjiamen,29.9576,122.298,4.27,68,11,4.8,CN,1738783131
356,las khorey,11.1595,48.1967,22.44,69,3,4.37,SO,1738783132
357,hamilton,39.1834,-84.5333,2.69,67,100,6.17,US,1738783089
358,newman,37.3138,-121.0208,11.13,62,0,2.68,US,1738783135
359,nizhnesortymskiy,62.4397,71.7603,-13.75,100,100,2.66,RU,1738783136
360,tura,25.5198,90.2201,15.67,64,0,1.82,IN,1738783137
361,nouadhibou,20.931,-17.0347,21.99,53,0,5.66,MR,1738783138
362,klyuchi,52.2667,79.1667,-14.74,86,5,5.07,RU,1738783139
363,mwinilunga,-11.7358,24.4293,18.36,97,100,2.2,ZM,1738783140
364,ballesteros,18.4126,121.5152,21.33,88,100,4.07,PH,1738783141
365,usinsk,65.9939,57.5281,-13.31,97,69,4.62,RU,1738783127
366,al 'amarah,31.8406,47.1396,17.07,50,4,10.6,IQ,1738783145
367,kapa'a,22.0752,-159.319,21.18,78,100,0.0,US,1738783146
368,sao felix do xingu,-6.6447,-51.995,29.61,65,70,1.5,BR,1738783147
369,buka,40.8108,69.1986,5.57,46,100,0.6,UZ,1738783148
370,kruisfontein,-34.0033,24.7314,19.6,68,100,3.57,ZA,1738783150
371,la sarre,48.8002,-79.1996,-13.59,78,58,5.33,CA,1738783151
372,tazovsky,67.4667,78.7,-20.18,99,25,3.48,RU,1738783154
373,bubaque,11.2833,-15.8333,25.79,61,83,4.39,GW,1738783096
374,zykovo,55.9519,93.1461,-17.05,96,100,1.0,RU,1738783156
375,paita,-5.0892,-81.1144,25.61,67,72,6.66,PE,1738783157
376,yaren,-0.5472,166.916,26.6,79,28,6.57,NR,1738783158
377,beichengqu,40.4394,113.1536,-15.52,78,7,3.21,CN,1738783159
378,praia da vitoria,38.7333,-27.0667,19.14,77,20,3.57,PT,1738783160
379,mogadishu,2.0371,45.3438,24.71,89,83,8.91,SO,1738783162
380,mount pleasant,32.7941,-79.8626,20.59,85,40,2.57,US,1738782982
381,safaga,26.7292,33.9365,18.42,55,27,8.61,EG,1738783164
382,newnham,-41.3833,147.1333,9.53,87,1,3.6,AU,1738783165
383,luderitz,-26.6481,15.1594,21.92,58,87,10.53,NA,1738783166
384,nizhnevartovsk,60.9344,76.5531,-9.99,92,100,0.0,RU,1738783167
385,castillos,-34.1667,-53.8333,27.06,63,100,6.12,UY,1738783169
386,valparaiso,-33.0393,-71.6273,32.8,25,0,7.72,CL,1738783116
387,harstad,68.799,16.5293,1.75,83,10,1.79,NO,1738783172
388,gaiman,-43.2897,-65.4929,27.11,16,100,6.54,AR,1738783173
389,vilyuysk,63.7553,121.6247,-45.11,100,61,1.19,RU,1738783105
390,sisimiut,66.9395,-53.6735,-20.55,93,100,2.79,GL,1738783175
391,kuala tungkal,-0.8167,103.4667,24.18,93,100,3.44,ID,1738783176
392,gutierrez zamora,20.45,-97.0833,26.11,72,89,2.86,MX,1738783177
393,fort mcmurray,56.7268,-111.381,-18.23,55,100,4.63,CA,1738783178
394,gunnison,38.7,-107.0673,3.77,62,21,7.63,US,1738783180
395,port augusta,-32.5,137.7667,21.08,65,0,5.64,AU,1738783181
396,itoman,26.1247,127.6694,11.72,53,10,4.07,JP,1738783182
397,sarakhs,36.5449,61.1577,8.2,39,50,1.91,IR,1738783183
398,sirte,31.2089,16.5887,15.75,67,90,3.48,LY,1738783184
399,pacific grove,36.6177,-121.9166,12.72,70,0,5.36,US,1738783032
400,aflou,34.1128,2.1023,5.35,65,100,4.04,DZ,1738783187
401,misratah,32.3754,15.0925,15.73,68,71,3.25,LY,1738783188
402,pilsrundale,56.4167,24.0,1.0,85,100,3.59,LV,1738783189
403,srivardhan,18.0333,73.0167,22.85,60,0,2.56,IN,1738783191
404,thabazimbi,-24.5917,27.4116,23.9,67,94,2.67,ZA,1738783192
405,willebadessen,51.6256,9.0369,2.96,96,100,1.67,DE,1738783193
406,port lincoln,-34.7333,135.8667,16.86,80,0,4.79,AU,1738783194
407,yanta,36.2411,115.6672,-4.13,31,0,3.58,CN,1738783195
408,kuanda,56.3161,116.0806,-35.49,94,44,0.19,RU,1738783196
409,flin flon,54.7682,-101.865,-19.09,65,75,3.6,CA,1738783197
410,lerwick,60.1545,-1.1494,6.71,76,7,7.95,GB,1738783198
411,temiskaming shores,47.4938,-79.7153,-11.11,60,27,3.8,CA,1738783200
412,atafu village,-8.5421,-172.5159,28.81,71,20,8.95,TK,1738783202
413,santa ana de yacuma,-13.75,-65.4333,32.97,55,40,5.14,BO,1738783203
414,sitka,57.0531,-135.33,0.94,69,0,1.54,US,1738782968
415,al bawiti,28.3492,28.8659,15.56,56,100,8.86,EG,1738783205
416,laojunmiao,39.8333,97.7333,-10.8,43,86,2.51,CN,1738783206
417,ulladulla,-35.35,150.4667,19.1,91,39,1.05,AU,1738783207
418,cova figueira,14.8905,-24.2934,16.68,60,0,7.91,CV,1738782978
419,carnarvon,-24.8667,113.6333,26.5,74,8,2.35,AU,1738783210
420,ghat,24.9647,10.1728,18.78,28,98,3.92,LY,1738783211
421,la gomera,14.0833,-91.05,31.84,34,1,5.46,GT,1738783212
422,byron bay,-28.65,153.6167,21.51,88,3,1.12,AU,1738783213
423,vennesla,58.2694,7.9741,2.93,89,0,1.03,NO,1738783214
424,howrah,22.5892,88.3103,24.0,83,1,1.54,IN,1738783215
425,punta arenas,-53.15,-70.9167,12.83,57,100,4.3,CL,1738783216
426,galesong,-5.3166,119.3661,25.92,83,100,2.12,ID,1738783217
427,tarawa,1.419,172.984,27.05,89,40,3.09,KI,1738783218
428,caucete,-31.6518,-68.2811,35.48,21,0,7.14,AR,1738783220
429,betio village,1.358,172.9211,27.02,84,12,7.35,KI,1738783218
430,shikarpur,27.9571,68.6379,14.46,13,0,1.49,PK,1738782994
431,fortuna,40.5982,-124.1573,8.32,92,75,6.69,US,1738783012
432,malacca,2.196,102.2405,25.02,86,20,3.6,MY,1738783208
433,las vegas,36.175,-115.1372,21.95,35,0,12.35,US,1738782521
434,njombe,-9.3333,34.7667,14.99,98,100,1.13,TZ,1738783226
435,valky,49.8387,35.6207,-2.22,96,35,2.73,UA,1738783227
436,gurpinar,40.9903,28.6153,4.4,52,75,6.69,TR,1738783228
437,puerto ayacucho,5.6639,-67.6236,37.87,31,32,0.75,VE,1738783229
438,aripuana,-9.1667,-60.6333,27.78,81,71,1.33,BR,1738783231
439,ivins,37.1686,-113.6794,18.62,44,63,1.26,US,1738783232
440,colonia,50.9333,6.95,4.98,92,100,0.51,DE,1738782957
441,xilin hot,43.9667,116.0333,-18.87,97,100,3.25,CN,1738783234
442,matelica,43.2541,13.0106,4.29,65,9,0.93,IT,1738783235
443,humaita,-7.5061,-63.0208,26.75,88,100,1.61,BR,1738783236
444,suntar,62.1444,117.6319,-44.67,100,62,1.25,RU,1738783237
445,urengoy,65.9667,78.3667,-19.4,100,86,2.79,RU,1738783238
446,ixtapa,20.7,-105.2,25.57,41,0,4.63,MX,1738783240
447,saldanha,-33.0117,17.9442,17.65,69,0,12.65,ZA,1738783198
448,saint-joseph,-21.3667,55.6167,27.21,83,29,4.33,RE,1738783149
449,long beach,33.767,-118.1892,15.55,95,100,3.6,US,1738783243
450,gumel,12.6279,9.3912,23.92,8,0,4.19,NG,1738783244
451,palopo,-2.9996,120.1921,24.71,83,100,1.42,ID,1738783245
452,smithers,54.7804,-127.1743,-19.82,84,0,2.06,CA,1738783246
453,tual,-5.6667,132.75,28.32,78,100,10.39,ID,1738783247
454,at taj,24.2049,23.2857,15.59,42,100,4.28,LY,1738783248
455,bahir dar,11.5936,37.3908,22.78,34,4,3.41,ET,1738783249
456,barah,13.7,30.3667,23.81,17,2,6.5,SD,1738783250
457,chibougamau,49.9168,-74.3659,-16.21,66,0,5.66,CA,1738783252
458,coquimbo,-29.9533,-71.3436,21.85,63,0,6.69,CL,1738782754
459,mokhsogollokh,61.4681,128.9203,-42.2,100,62,1.11,RU,1738783254
460,datong,40.0936,113.2914,-12.27,58,23,3.44,CN,1738783255
461,chabahar,25.2919,60.643,20.82,44,0,1.83,IR,1738783256
462,spassk-ryazanskiy,54.4072,40.3806,-1.27,95,100,3.34,RU,1738783257
463,odacho-oda,35.1833,132.5,0.84,61,99,10.95,JP,1738783258
464,nyrob,60.733,56.7202,-10.93,96,100,1.15,RU,1738783259
465,masterton,-40.9597,175.6575,11.45,76,88,0.33,NZ,1738783260
466,qarazhal,48.0078,70.7903,-11.64,83,5,6.95,KZ,1738783262
467,port blair,11.6667,92.75,25.07,79,0,3.4,IN,1738783263
468,belyy yar,53.6039,91.3903,-14.06,100,40,0.0,RU,1738783264
469,sorsk,54.0033,90.2467,-18.36,93,20,0.65,RU,1738783265
470,kapit,2.0167,112.9333,22.77,100,100,0.3,MY,1738783266
471,nadi,-17.8,177.4167,25.0,94,75,1.54,FJ,1738783267
472,wulingyuan,29.3494,110.5441,2.09,82,94,0.97,CN,1738783268
473,amga,60.8953,131.9608,-42.43,100,87,0.39,RU,1738783269
474,lubang,13.8584,120.124,26.2,78,96,9.95,PH,1738783270
475,malabar,-33.9667,151.25,21.84,82,20,4.63,AU,1738783271
476,boca suno,-0.7167,-77.1333,31.55,50,77,1.77,EC,1738783037
477,mirny,62.5353,113.9611,-43.67,100,62,1.29,RU,1738783274
478,ipilan,8.8431,117.9033,24.79,85,95,2.05,PH,1738783275
479,new norfolk,-42.7826,147.0587,10.95,96,11,0.93,AU,1738783276
480,akureyri,65.6835,-18.0878,3.96,100,100,22.12,IS,1738783277
481,howard springs,-12.497,131.047,26.57,96,91,2.12,AU,1738783278
482,wapakoneta,40.5678,-84.1936,-0.44,89,100,5.66,US,1738783110
483,raduzhny,62.0961,77.475,-18.82,100,86,1.52,RU,1738783280
484,oxford,51.7522,-1.256,5.09,89,0,1.03,GB,1738783281
485,kuhmo,64.1333,29.5167,-5.59,93,100,6.52,FI,1738783283
486,kindu,-2.95,25.95,22.3,96,97,0.91,CD,1738783284
487,kavala,40.9397,24.4019,6.03,70,44,0.52,GR,1738783285
488,archangelos,36.2149,28.1149,8.99,51,0,11.71,GR,1738783286
489,cartagena del chaira,1.3349,-74.8429,35.17,31,100,1.91,CO,1738783287
490,gebeit,21.0667,36.3167,19.51,84,24,5.3,SD,1738783288
491,zhu cheng city,35.995,119.4026,-5.53,27,0,3.39,CN,1738783289
492,naze,28.3667,129.4833,10.51,52,96,7.17,JP,1738783290
493,lethem,3.3803,-59.7968,33.46,42,100,4.97,GY,1738783291
494,bocana de paiwas,12.7857,-85.1227,26.07,78,47,7.39,NI,1738783293
495,matinha,-3.1006,-45.0336,30.16,66,71,2.89,BR,1738783294
496,poronaysk,49.2167,143.1167,-2.87,78,93,7.84,RU,1738783295
497,sampit,-2.5333,112.95,23.06,96,23,1.19,ID,1738783296
498,kununurra,-15.7667,128.7333,26.99,74,100,2.06,AU,1738783298
499,nar'yan-mar,67.6713,53.087,-10.52,94,52,6.47,RU,1738783299
500,inarajan village,13.2736,144.7484,27.54,86,100,8.6,GU,1738783300
501,tabou,4.423,-7.3528,27.42,81,4,4.56,CI,1738783301
502,dubai,25.2582,55.3047,19.96,64,0,2.57,AE,1738783065
503,vernal,40.4555,-109.5287,12.84,38,75,5.66,US,1738783304
504,coahuayana de hidalgo,18.7,-103.6583,31.33,48,1,3.13,MX,1738783305
505,hastings,50.8552,0.5729,7.1,81,100,3.33,GB,1738783306
506,isola di capo rizzuto,38.96,17.0933,10.41,62,0,6.93,IT,1738783307
507,guerrero negro,27.9769,-114.0611,17.3,64,0,6.59,MX,1738783308
508,sobinka,55.9855,40.0111,-2.41,86,99,2.67,RU,1738783309
509,san ignacio de velasco,-16.3667,-60.95,33.56,40,84,2.02,BO,1738783310
510,vorkuta,67.5,64.0,-13.52,98,100,3.03,RU,1738783100
511,salinopolis,-0.6136,-47.3561,27.83,74,52,4.74,BR,1738783309
512,kristiansund,63.1115,7.732,5.36,70,20,5.14,NO,1738783313
513,chapaev,50.2,51.1667,-6.83,87,100,4.54,KZ,1738783314
514,al ghayzah,16.2079,52.176,20.62,55,100,3.96,YE,1738783316
515,kuala terengganu,5.3302,103.1408,24.97,88,20,0.51,MY,1738783317
516,udachny,66.4167,112.4,-27.81,100,99,2.04,RU,1738783318
517,manaure,11.7751,-72.4445,30.7,49,89,8.65,CO,1738783319
518,nuuk,64.1835,-51.7216,-12.66,66,75,4.63,GL,1738783140
519,rio negro,-26.1058,-49.7975,19.44,98,100,2.28,BR,1738783321
520,kupang,-10.1667,123.5833,26.32,94,75,0.51,ID,1738783322
521,boende,-0.2167,20.8667,26.83,59,99,0.56,CD,1738783323
522,woodward,36.4337,-99.3904,5.51,93,100,5.14,US,1738783324
523,shar,49.5886,81.0453,-25.12,100,87,1.82,KZ,1738783326
524,gautier,30.3858,-88.6117,24.48,70,0,3.09,US,1738783327
525,tobol'sk,58.2,68.2667,-7.28,95,90,1.85,RU,1738783329
526,mugia,43.1041,-9.2179,12.73,82,100,2.27,ES,1738783330
527,alofi,-19.0595,-169.9187,26.94,83,75,3.6,NU,1738783331
528,cidade velha,14.9167,-23.6167,22.26,64,0,8.75,CV,1738783332
529,skopin,53.8249,39.5505,-1.19,80,100,3.19,RU,1738783333
530,manturovo,58.3353,44.7619,-10.85,99,81,1.54,RU,1738783335
531,myitkyina,25.3833,97.4,15.77,65,39,1.31,MM,1738783336
532,kulhudhuffushi,6.6221,73.07,27.5,74,15,3.9,MV,1738783280
533,calabozo,8.9242,-67.4293,36.46,27,19,3.77,VE,1738783338
534,hasaki,35.7333,140.8333,3.58,36,0,8.44,JP,1738783339
535,bay harbor,30.1471,-85.6146,25.03,73,75,1.34,US,1738783341
536,perevoz,55.5961,44.5446,-7.71,95,85,2.26,RU,1738783342
537,nantucket,41.2835,-70.0995,-1.94,40,0,6.11,US,1738783343
538,vernon,50.2581,-119.2691,-8.47,46,37,1.34,CA,1738783344
539,merizo village,13.2658,144.6691,27.31,86,100,8.53,GU,1738783345
540,ankang,32.68,109.0172,5.54,40,62,0.85,CN,1738783346
541,mrakovo,52.7161,56.6244,-5.85,76,39,6.29,RU,1738783347
542,mahdia,35.5047,11.0622,13.66,73,79,6.02,TN,1738783348
543,north bend,43.4065,-124.2243,7.95,61,75,6.69,US,1738783349
544,koulamoutou,-1.1303,12.4736,24.33,86,100,1.53,GA,1738783351
545,mlada boleslav,50.4114,14.9032,2.12,83,96,3.86,CZ,1738783352
546,knyaze-volkonskoye,48.4642,135.4567,-9.81,91,100,1.97,RU,1738783353
547,moroto,2.5345,34.6666,22.38,22,100,3.5,UG,1738783354
548,scituate,42.1959,-70.7259,-0.88,41,0,3.6,US,1738783355
549,la jolla,32.8473,-117.2742,20.1,57,0,1.54,US,1738783356
550,mangai,-4.05,19.5333,23.05,83,100,0.82,CD,1738783357
551,nadym,65.5333,72.5167,-16.74,96,100,3.69,RU,1738783360
552,wotho,10.1657,166.0102,27.44,75,100,7.55,MH,1738783361
553,sarkand,45.41,79.9186,-8.26,61,65,3.56,KZ,1738783362
554,wainwright,52.839,-110.8572,-21.19,96,100,2.9,CA,1738783073
555,mongoumba,3.6415,18.5936,28.96,26,97,0.74,CF,1738783364
556,wahpeton,46.2652,-96.6059,-9.99,73,100,9.26,US,1738783068
557,cafayate,-26.073,-65.9761,31.73,27,47,4.45,AR,1738783366
558,tanjung pandan,-2.75,107.65,26.04,85,98,5.34,ID,1738783367
559,yairipok,24.6667,94.0667,9.56,85,0,0.47,IN,1738783369
560,san luis,-33.295,-66.3356,32.48,34,0,8.12,AR,1738783304
561,vadso,70.0744,29.7487,-4.91,80,75,8.75,NO,1738783371
562,weiz,47.2167,15.6167,-0.75,64,6,1.97,AT,1738783373
563,kangundo,-1.2979,37.3471,17.63,59,100,1.42,KE,1738783217
564,adrar,20.5022,-10.0711,19.34,12,0,4.77,MR,1738783375
565,daqing,46.5833,125.0,-29.45,99,24,2.31,CN,1738783376
566,houlton,46.1262,-67.8403,-11.82,43,0,5.66,US,1738783377
567,humenne,48.9371,21.9163,0.17,67,5,2.21,SK,1738783379
568,taro,-8.3862,115.28,20.93,94,100,0.88,ID,1738783380
569,ghadamis,30.1337,9.5007,13.21,26,7,5.68,LY,1738783381
570,arraial do cabo,-22.9661,-42.0278,30.98,54,20,8.75,BR,1738783383
571,salekhard,66.53,66.6019,-18.86,98,100,3.13,RU,1738783384
